%time,field.header.seq,field.header.stamp,field.header.frame_id,field.point.x,field.point.y,field.point.z
1602701735368782777,2083,1602701735368782777,,30.2879620414,-97.7377243817,-0.829731762409
1602701735409157790,2084,1602701735409157790,,30.2879620414,-97.7377243817,-0.829731762409
1602701735449302927,2085,1602701735449302927,,30.2879620414,-97.7377243817,-0.829731762409
1602701735510059478,2086,1602701735510059478,,30.2879620414,-97.7377243817,-0.829731762409
1602701735550013641,2087,1602701735550013641,,30.2879620414,-97.7377243817,-0.829731762409
1602701735590288240,2088,1602701735590288240,,30.2879620199,-97.7377243656,-0.826334297657
1602701735634915742,2089,1602701735634915742,,30.2879620199,-97.7377243656,-0.826334297657
1602701735651551239,2090,1602701735651551239,,30.2879619816,-97.7377243369,-0.822257339954
1602701735671616253,2091,1602701735671616253,,30.2879618779,-97.7377243097,-0.823141813278
1602701735711832754,2092,1602701735711832754,,30.2879618233,-97.7377242684,-0.818555116653
1602701735752666777,2093,1602701735752666777,,30.2879617472,-97.7377242093,-0.809551954269
1602701735792462576,2094,1602701735792462576,,30.2879616572,-97.7377241372,-0.795452833176
1602701735853018702,2095,1602701735853018702,,30.2879616572,-97.7377241372,-0.795452833176
1602701735893033906,2096,1602701735893033906,,30.287961428,-97.7377239375,-0.766234636307
1602701735933433931,2097,1602701735933433931,,30.287961428,-97.7377239375,-0.766234636307
1602701735953624132,2098,1602701735953624132,,30.2879612843,-97.7377238129,-0.7553627491
1602701735973925961,2099,1602701735973925961,,30.2879612843,-97.7377238129,-0.7553627491
1602701736014409783,2100,1602701736014409783,,30.287961131,-97.7377236717,-0.733109712601
1602701736054705581,2101,1602701736054705581,,30.2879609607,-97.7377235018,-0.700324773788
1602701736094612105,2102,1602701736094612105,,30.2879607837,-97.7377233122,-0.66601061821
1602701736136384738,2103,1602701736136384738,,30.2879607837,-97.7377233122,-0.66601061821
1602701736176485591,2104,1602701736176485591,,30.2879602599,-97.7377227592,-0.635677039623
1602701736236929842,2105,1602701736236929842,,30.2879600618,-97.7377225244,-0.610026538372
1602701736277269950,2106,1602701736277269950,,30.2879596352,-97.7377219662,-0.568917453289
1602701736298889382,2107,1602701736298889382,,30.2879596352,-97.7377219662,-0.568917453289
1602701736359397221,2108,1602701736359397221,,30.2879594048,-97.7377216556,-0.545135676861
1602701736399001714,2109,1602701736399001714,,30.2879586059,-97.7377210708,-0.52997148037
1602701736439289941,2110,1602701736439289941,,30.2879586059,-97.7377210708,-0.52997148037
1602701736479593314,2111,1602701736479593314,,30.2879583567,-97.7377207039,-0.503301501274
1602701736520119418,2112,1602701736520119418,,30.2879581041,-97.73772031,-0.476462244987
1602701736580567494,2113,1602701736580567494,,30.2879576307,-97.7377194504,-0.419555068016
1602701736600457392,2114,1602701736600457392,,30.2879576307,-97.7377194504,-0.419555068016
1602701736662161873,2115,1602701736662161873,,30.2879573995,-97.737719017,-0.391186594963
1602701736702596552,2116,1602701736702596552,,30.2879571523,-97.7377190911,-0.370525300503
1602701736742670495,2117,1602701736742670495,,30.2879571523,-97.7377190911,-0.370525300503
1602701736782897727,2118,1602701736782897727,,30.2879569351,-97.7377186472,-0.349631249905
1602701736823420094,2119,1602701736823420094,,30.2879567254,-97.7377181993,-0.330605447292
1602701736863253328,2120,1602701736863253328,,30.2879565223,-97.7377177469,-0.311919629574
1602701736883453883,2121,1602701736883453883,,30.2879563273,-97.73771729,-0.292893826962
1602701736903553955,2122,1602701736903553955,,30.2879563273,-97.73771729,-0.292893826962
1602701736945323237,2123,1602701736945323237,,30.2879561393,-97.7377168291,-0.274208009243
1602701736985261235,2124,1602701736985261235,,30.2879562927,-97.7377169352,-0.25839304924
1602701737045373532,2125,1602701737045373532,,30.2879562927,-97.7377169352,-0.25839304924
1602701737085771447,2126,1602701737085771447,,30.2879561192,-97.7377164689,-0.23987698555
1602701737126145243,2127,1602701737126145243,,30.2879559521,-97.7377159954,-0.221020936966
1602701737166541139,2128,1602701737166541139,,30.2879557933,-97.73771552,-0.202335119247
1602701737186602444,2129,1602701737186602444,,30.2879556416,-97.7377150398,-0.183479547501
1602701737206695320,2130,1602701737206695320,,30.2879556416,-97.7377150398,-0.183479547501
1602701737248272687,2131,1602701737248272687,,30.2879556416,-97.7377150398,-0.183479547501
1602701737288604372,2132,1602701737288604372,,30.2879553744,-97.7377140675,-0.149675130844
1602701737328764154,2133,1602701737328764154,,30.2879554079,-97.7377144718,-0.14872688055
1602701737348879805,2134,1602701737348879805,,30.2879552765,-97.7377139854,-0.134287774563
1602701737369028903,2135,1602701737369028903,,30.2879552765,-97.7377139854,-0.134287774563
1602701737409389947,2136,1602701737409389947,,30.2879551508,-97.7377134958,-0.119848668575
1602701737449531255,2137,1602701737449531255,,30.2879550316,-97.7377130047,-0.105239808559
1602701737510194500,2138,1602701737510194500,,30.2879549179,-97.7377125098,-0.0906309485435
1602701737551371423,2139,1602701737551371423,,30.2879549179,-97.7377125098,-0.0906309485435
1602701737591492615,2140,1602701737591492615,,30.2879548928,-97.737711812,-0.0604027733207
1602701737631821186,2141,1602701737631821186,,30.2879548928,-97.737711812,-0.0604027733207
1602701737651844859,2142,1602701737651844859,,30.2879547984,-97.7377113128,-0.0464734062552
1602701737672091242,2143,1602701737672091242,,30.2879547984,-97.7377113128,-0.0464734062552
1602701737712510796,2144,1602701737712510796,,30.2879547105,-97.737710814,-0.0318645462394
1602701737752698112,2145,1602701737752698112,,30.2879546284,-97.7377103113,-0.0177649483085
1602701737792818021,2146,1602701737792818021,,30.2879545528,-97.7377098078,-0.0031560882926
1602701737834599462,2147,1602701737834599462,,30.2879545528,-97.7377098078,-0.0031560882926
1602701737894228530,2148,1602701737894228530,,30.2879547249,-97.7377096352,0.0131106097251
1602701737935049443,2149,1602701737935049443,,30.2879546599,-97.7377091293,0.02347275801
1602701737975381227,2150,1602701737975381227,,30.2879545988,-97.7377086225,0.0329856574535
1602701737995481275,2151,1602701737995481275,,30.2879545988,-97.7377086225,0.0329856574535
1602701738015229632,2152,1602701738015229632,,30.2879545427,-97.7377081172,0.0430078208447
1602701738055695878,2153,1602701738055695878,,30.2879544827,-97.737707613,0.040799587965
1602701738095610117,2154,1602701738095610117,,30.2879544196,-97.7377071056,0.0355333983898
1602701738137392154,2155,1602701738137392154,,30.2879544196,-97.7377071056,0.0355333983898
1602701738177423743,2156,1602701738177423743,,30.2879543527,-97.7377066016,0.0277194678783
1602701738237855085,2157,1602701738237855085,,30.2879543711,-97.7377062038,0.0216619446874
1602701738278266931,2158,1602701738278266931,,30.2879542131,-97.7377052002,0.00382537394762
1602701738298595309,2159,1602701738298595309,,30.2879542131,-97.7377052002,0.00382537394762
1602701738359108386,2160,1602701738359108386,,30.2879541303,-97.7377047001,-0.00738602131605
1602701738399125223,2161,1602701738399125223,,30.2879540424,-97.7377041974,-0.0180876776576
1602701738440915180,2162,1602701738440915180,,30.2879540424,-97.7377041974,-0.0180876776576
1602701738480892899,2163,1602701738480892899,,30.2879539497,-97.7377036965,-0.0294693037868
1602701738520722893,2164,1602701738520722893,,30.2879539187,-97.7377031634,-0.0416886769235
1602701738581502996,2165,1602701738581502996,,30.2879536879,-97.7377021772,-0.0727751255035
1602701738601591258,2166,1602701738601591258,,30.2879536879,-97.7377021772,-0.0727751255035
1602701738642199302,2167,1602701738642199302,,30.2879535691,-97.7377016844,-0.088573217392
1602701738702249345,2168,1602701738702249345,,30.2879535691,-97.7377016844,-0.088573217392
1602701738743061353,2169,1602701738743061353,,30.287953443,-97.7377011933,-0.10437130928
1602701738783115689,2170,1602701738783115689,,30.2879533106,-97.7377007052,-0.120508909225
1602701738824164920,2171,1602701738824164920,,30.2879531712,-97.7377002196,-0.136307001114
1602701738864274912,2172,1602701738864274912,,30.287953025,-97.7376997343,-0.151765584946
1602701738924208185,2173,1602701738924208185,,30.287952517,-97.7376992105,-0.170164644718
1602701738944629739,2174,1602701738944629739,,30.2879523565,-97.7376987317,-0.185792505741
1602701738984967182,2175,1602701738984967182,,30.2879521899,-97.7376982558,-0.201251089573
1602701739025238911,2176,1602701739025238911,,30.2879521899,-97.7376982558,-0.201251089573
1602701739085760686,2177,1602701739085760686,,30.2879520175,-97.7376977847,-0.217049181461
1602701739125882966,2178,1602701739125882966,,30.2879518344,-97.7376973141,-0.237093985081
1602701739167653998,2179,1602701739167653998,,30.2879516391,-97.7376968411,-0.258667528629
1602701739207785553,2180,1602701739207785553,,30.2879521094,-97.7376971201,-0.275797247887
1602701739228573293,2181,1602701739228573293,,30.2879521094,-97.7376971201,-0.275797247887
1602701739248751724,2182,1602701739248751724,,30.2879519031,-97.7376966644,-0.296351790428
1602701739289174154,2183,1602701739289174154,,30.2879516906,-97.737696214,-0.314697623253
1602701739329352340,2184,1602701739329352340,,30.2879516906,-97.737696214,-0.314697623253
1602701739389776755,2185,1602701739389776755,,30.2879514716,-97.7376957661,-0.330495715141
1602701739429835835,2186,1602701739429835835,,30.2879512473,-97.7376953235,-0.346633791924
1602701739471688985,2187,1602701739471688985,,30.2879510162,-97.7376948847,-0.363111376762
1602701739511808761,2188,1602701739511808761,,30.2879509884,-97.7376945886,-0.376558542252
1602701739532033113,2189,1602701739532033113,,30.2879509884,-97.7376945886,-0.376558542252
1602701739552057736,2190,1602701739552057736,,30.2879507456,-97.7376941569,-0.393206357956
1602701739592446370,2191,1602701739592446370,,30.287950497,-97.7376937305,-0.409343957901
1602701739632595760,2192,1602701739632595760,,30.287950497,-97.7376937305,-0.409343957901
1602701739672822270,2193,1602701739672822270,,30.2879502427,-97.7376933095,-0.42582154274
1602701739733154584,2194,1602701739733154584,,30.2879499827,-97.737692893,-0.4414498806
1602701739774605118,2195,1602701739774605118,,30.2879497158,-97.7376924798,-0.458266973495
1602701739814569834,2196,1602701739814569834,,30.2879496277,-97.7376922513,-0.474863290787
1602701739834875384,2197,1602701739834875384,,30.2879496277,-97.7376922513,-0.474863290787
1602701739854826774,2198,1602701739854826774,,30.28794935,-97.7376918505,-0.49117064476
1602701739895115795,2199,1602701739895115795,,30.28794935,-97.7376918505,-0.49117064476
1602701739935996804,2200,1602701739935996804,,30.2879490672,-97.7376914549,-0.507308721542
1602701739976123802,2201,1602701739976123802,,30.2879487779,-97.7376910636,-0.523786306381
1602701740036104319,2202,1602701740036104319,,30.2879484785,-97.7376906731,-0.540943384171
1602701740077398715,2203,1602701740077398715,,30.2879481775,-97.7376902934,-0.557930231094
1602701740097277427,2204,1602701740097277427,,30.2879481269,-97.737690191,-0.576308071613
1602701740157691721,2205,1602701740157691721,,30.2879478144,-97.7376898232,-0.593125164509
1602701740197957061,2206,1602701740197957061,,30.2879474972,-97.7376894633,-0.610282242298
1602701740238513537,2207,1602701740238513537,,30.2879474972,-97.7376894633,-0.610282242298
1602701740278839640,2208,1602701740278839640,,30.2879471747,-97.7376891091,-0.627099812031
1602701740319045170,2209,1602701740319045170,,30.2879468475,-97.7376887623,-0.644596397877
1602701740360707050,2210,1602701740360707050,,30.2879465163,-97.7376884219,-0.661073982716
1602701740420439585,2211,1602701740420439585,,30.2879460151,-97.7376883071,-0.678818106651
1602701740441273756,2212,1602701740441273756,,30.2879456717,-97.7376879788,-0.695975184441
1602701740501337154,2213,1602701740501337154,,30.2879453241,-97.7376876581,-0.71313226223
1602701740541596065,2214,1602701740541596065,,30.2879453241,-97.7376876581,-0.71313226223
1602701740581777125,2215,1602701740581777125,,30.2879449729,-97.7376873455,-0.730459094048
1602701740622017301,2216,1602701740622017301,,30.287944616,-97.7376870379,-0.746766448021
1602701740663878529,2217,1602701740663878529,,30.2879442544,-97.7376867376,-0.763753771782
1602701740703835943,2218,1602701740703835943,,30.2879438881,-97.7376864445,-0.780910849571
1602701740723857812,2219,1602701740723857812,,30.2879439948,-97.737686545,-0.781712532043
1602701740743990426,2220,1602701740743990426,,30.2879436236,-97.7376862584,-0.798190116882
1602701740784268012,2221,1602701740784268012,,30.2879432488,-97.7376859796,-0.815686702728
1602701740824723948,2222,1602701740824723948,,30.2879432488,-97.7376859796,-0.815686702728
1602701740885244983,2223,1602701740885244983,,30.2879428705,-97.7376857093,-0.832674026489
1602701740925517863,2224,1602701740925517863,,30.2879424881,-97.7376854459,-0.84966135025
1602701740966930019,2225,1602701740966930019,,30.2879421013,-97.7376851903,-0.86681842804
1602701741006890878,2226,1602701741006890878,,30.2879417111,-97.737684942,-0.883975028992
1602701741027275857,2227,1602701741027275857,,30.287941672,-97.7376850528,-0.884315788746
1602701741047058893,2228,1602701741047058893,,30.2879412785,-97.7376848127,-0.901472866535
1602701741087473466,2229,1602701741087473466,,30.287940881,-97.7376845808,-0.918629944324
1602701741128005485,2230,1602701741128005485,,30.287940881,-97.7376845808,-0.918629944324
1602701741168469942,2231,1602701741168469942,,30.2879404811,-97.7376843541,-0.932729542255
1602701741228646184,2232,1602701741228646184,,30.2879400795,-97.7376841336,-0.945130169392
1602701741270397604,2233,1602701741270397604,,30.2879396755,-97.7376839192,-0.958210289478
1602701741310318380,2234,1602701741310318380,,30.2879392679,-97.7376837093,-0.970270931721
1602701741350446189,2235,1602701741350446189,,30.2879388521,-97.7376836128,-0.983326017857
1602701741370480438,2236,1602701741370480438,,30.2879388521,-97.7376836128,-0.983326017857
1602701741390653173,2237,1602701741390653173,,30.287938441,-97.7376834157,-0.995896399021
1602701741431030679,2238,1602701741431030679,,30.287938441,-97.7376834157,-0.995896399021
1602701741471370741,2239,1602701741471370741,,30.2879380274,-97.7376832244,-1.00829696655
1602701741511790584,2240,1602701741511790584,,30.2879376109,-97.7376830394,-1.02137708664
1602701741573719116,2241,1602701741573719116,,30.2879371913,-97.7376828595,-1.0339474678
1602701741613682253,2242,1602701741613682253,,30.287936771,-97.7376826863,-1.04668807983
1602701741653751454,2243,1602701741653751454,,30.2879363502,-97.7376825206,-1.05976819992
1602701741673920263,2244,1602701741673920263,,30.2879363301,-97.7376826021,-1.06064319611
1602701741694085043,2245,1602701741694085043,,30.2879359078,-97.7376824427,-1.07304382324
1602701741734099298,2246,1602701741734099298,,30.2879359078,-97.7376824427,-1.07304382324
1602701741774284462,2247,1602701741774284462,,30.2879354828,-97.7376822885,-1.08544445038
1602701741814530120,2248,1602701741814530120,,30.2879350559,-97.7376821415,-1.09818458557
1602701741876342240,2249,1602701741876342240,,30.2879346268,-97.7376820004,-1.11126470566
1602701741916088339,2250,1602701741916088339,,30.2879341966,-97.7376818661,-1.12451457977
1602701741956386309,2251,1602701741956386309,,30.2879336852,-97.737681934,-1.13817536831
1602701741976427773,2252,1602701741976427773,,30.2879332529,-97.7376818133,-1.15142571926
1602701742036659230,2253,1602701742036659230,,30.2879332529,-97.7376818133,-1.15142571926
1602701742077072982,2254,1602701742077072982,,30.2879328146,-97.7376816957,-1.16127812862
1602701742117383965,2255,1602701742117383965,,30.2879323786,-97.7376815821,-1.16977155209
1602701742158598280,2256,1602701742158598280,,30.2879319431,-97.7376814734,-1.17792546749
1602701742198626928,2257,1602701742198626928,,30.2879319431,-97.7376814734,-1.17792546749
1602701742259078263,2258,1602701742259078263,,30.2879309481,-97.7376811726,-1.19596385956
1602701742299413931,2259,1602701742299413931,,30.2879305103,-97.737681078,-1.20496702194
1602701742319803553,2260,1602701742319803553,,30.2879305103,-97.737681078,-1.20496702194
1602701742359920074,2261,1602701742359920074,,30.2879300742,-97.7376809881,-1.2138004303
1602701742420259460,2262,1602701742420259460,,30.2879296334,-97.7376809011,-1.22212409973
1602701742462827770,2263,1602701742462827770,,30.2879291959,-97.73768082,-1.23095750809
1602701742501633850,2264,1602701742501633850,,30.2879291959,-97.73768082,-1.23095750809
1602701742541743071,2265,1602701742541743071,,30.2879284083,-97.7376809908,-1.24115633965
1602701742581993287,2266,1602701742581993287,,30.2879275239,-97.7376808584,-1.25763392448
1602701742642862102,2267,1602701742642862102,,30.2879270832,-97.7376807942,-1.26578783989
1602701742662579794,2268,1602701742662579794,,30.2879270832,-97.7376807942,-1.26578783989
1602701742703257849,2269,1602701742703257849,,30.2879266405,-97.7376807346,-1.27428126335
1602701742743377837,2270,1602701742743377837,,30.287926197,-97.7376806791,-1.28260493279
1602701742804653576,2271,1602701742804653576,,30.287926197,-97.7376806791,-1.28260493279
1602701742845135437,2272,1602701742845135437,,30.28792648,-97.7376807066,-1.29791486263
1602701742885520618,2273,1602701742885520618,,30.2879255905,-97.737680633,-1.31473195553
1602701742925872394,2274,1602701742925872394,,30.2879255905,-97.737680633,-1.31473195553
1602701742945522641,2275,1602701742945522641,,30.2879251463,-97.7376805979,-1.32305562496
1602701742965929222,2276,1602701742965929222,,30.2879251463,-97.7376805979,-1.32305562496
1602701743006106575,2277,1602701743006106575,,30.2879247015,-97.737680564,-1.32679307461
1602701743046143495,2278,1602701743046143495,,30.2879242545,-97.7376805318,-1.33036029339
1602701743087932053,2279,1602701743087932053,,30.2879242545,-97.7376805318,-1.33036029339
1602701743147727300,2280,1602701743147727300,,30.2879243507,-97.737680293,-1.33788585663
1602701743188159483,2281,1602701743188159483,,30.2879239056,-97.7376802668,-1.34196281433
1602701743228420560,2282,1602701743228420560,,30.2879234611,-97.737680243,-1.34603977203
1602701743248409848,2283,1602701743248409848,,30.2879230153,-97.7376802207,-1.34994697571
1602701743268812428,2284,1602701743268812428,,30.2879230153,-97.7376802207,-1.34994697571
1602701743308939201,2285,1602701743308939201,,30.2879225709,-97.7376802016,-1.35436344147
1602701743348947856,2286,1602701743348947856,,30.2879221248,-97.7376801833,-1.35827064514
1602701743390621487,2287,1602701743390621487,,30.2879221248,-97.7376801833,-1.35827064514
1602701743450463703,2288,1602701743450463703,,30.2879213979,-97.7376806734,-1.36621630192
1602701743490748062,2289,1602701743490748062,,30.2879205049,-97.7376806564,-1.37403070927
1602701743531295581,2290,1602701743531295581,,30.2879205049,-97.7376806564,-1.37403070927
1602701743551305924,2291,1602701743551305924,,30.2879200591,-97.7376806493,-1.37844717503
1602701743571271536,2292,1602701743571271536,,30.2879200591,-97.7376806493,-1.37844717503
1602701743611889554,2293,1602701743611889554,,30.2879196143,-97.7376806443,-1.38252413273
1602701743652087691,2294,1602701743652087691,,30.2879191681,-97.7376806409,-1.3864313364
1602701743713288189,2295,1602701743713288189,,30.2879191681,-97.7376806409,-1.3864313364
1602701743753354574,2296,1602701743753354574,,30.2879187222,-97.7376806402,-1.39067804813
1602701743793403876,2297,1602701743793403876,,30.2879179062,-97.7376806068,-1.40092802048
1602701743833460658,2298,1602701743833460658,,30.2879179062,-97.7376806068,-1.40092802048
1602701743853613020,2299,1602701743853613020,,30.2879174628,-97.737680613,-1.40483522415
1602701743873980153,2300,1602701743873980153,,30.2879174628,-97.737680613,-1.40483522415
1602701743914265135,2301,1602701743914265135,,30.2879170179,-97.7376806217,-1.40891218185
1602701743954501983,2302,1602701743954501983,,30.2879165709,-97.7376806323,-1.41315889359
1602701743996149360,2303,1602701743996149360,,30.2879165709,-97.7376806323,-1.41315889359
1602701744036140394,2304,1602701744036140394,,30.287916126,-97.7376806449,-1.41706562042
1602701744076427185,2305,1602701744076427185,,30.2879157524,-97.7376806034,-1.42403197289
1602701744136685672,2306,1602701744136685672,,30.2879153072,-97.7376806217,-1.42827868462
1602701744177018696,2307,1602701744177018696,,30.2879144158,-97.7376806687,-1.43609309196
1602701744197006729,2308,1602701744197006729,,30.2879144158,-97.7376806687,-1.43609309196
1602701744257314129,2309,1602701744257314129,,30.287913971,-97.7376806934,-1.4403398037
1602701744298845324,2310,1602701744298845324,,30.287913971,-97.7376806934,-1.4403398037
1602701744339043634,2311,1602701744339043634,,30.2879137506,-97.7376804819,-1.44281208515
1602701744379294410,2312,1602701744379294410,,30.2879133061,-97.7376805063,-1.4424725771
1602701744419455651,2313,1602701744419455651,,30.2879128617,-97.7376805309,-1.4424725771
1602701744459942654,2314,1602701744459942654,,30.287912416,-97.7376805559,-1.44264233112
1602701744520418053,2315,1602701744520418053,,30.2879119736,-97.7376805808,-1.44298183918
1602701744540540790,2316,1602701744540540790,,30.2879115279,-97.7376806058,-1.44315207005
1602701744582499968,2317,1602701744582499968,,30.2879115279,-97.7376806058,-1.44315207005
1602701744642533517,2318,1602701744642533517,,30.2879110811,-97.737680631,-1.44315207005
1602701744682639622,2319,1602701744682639622,,30.2879107049,-97.7376810418,-1.44666755199
1602701744723281279,2320,1602701744723281279,,30.2879102594,-97.7376810692,-1.44683730602
1602701744763206998,2321,1602701744763206998,,30.287909806,-97.7376810971,-1.44734704494
1602701744803458860,2322,1602701744803458860,,30.2879093623,-97.7376811237,-1.44683730602
1602701744843687674,2323,1602701744843687674,,30.2879089184,-97.7376811508,-1.44734704494
1602701744863780712,2324,1602701744863780712,,30.2879089184,-97.7376811508,-1.44734704494
1602701744885517596,2325,1602701744885517596,,30.2879089184,-97.7376811508,-1.44734704494
1602701744925290993,2326,1602701744925290993,,30.2879084726,-97.7376811781,-1.44700706005
1602701744985579869,2327,1602701744985579869,,30.2879084166,-97.7376814109,-1.45015513897
1602701745026383306,2328,1602701745026383306,,30.287907972,-97.7376814397,-1.45066440105
1602701745066410656,2329,1602701745066410656,,30.2879075266,-97.7376814691,-1.45049464703
1602701745106549264,2330,1602701745106549264,,30.2879070831,-97.7376814976,-1.45100438595
1602701745146840972,2331,1602701745146840972,,30.2879066383,-97.737681527,-1.45117413998
1602701745167054904,2332,1602701745167054904,,30.2879066383,-97.737681527,-1.45117413998
1602701745188494853,2333,1602701745188494853,,30.2879066383,-97.737681527,-1.45117413998
1602701745238513533,2334,1602701745238513533,,30.2879061943,-97.737681556,-1.45117413998
1602701745278790932,2335,1602701745278790932,,30.2879059316,-97.7376813681,-1.45375561714
1602701745319062795,2336,1602701745319062795,,30.2879054869,-97.7376813979,-1.45358586311
1602701745359338586,2337,1602701745359338586,,30.2879050417,-97.7376814288,-1.45375561714
1602701745399653851,2338,1602701745399653851,,30.2879045975,-97.7376814594,-1.45409560204
1602701745460061064,2339,1602701745460061064,,30.2879041522,-97.7376814903,-1.45426535606
1602701745481502464,2340,1602701745481502464,,30.2879041522,-97.7376814903,-1.45426535606
1602701745541357562,2341,1602701745541357562,,30.2879037064,-97.737681521,-1.45392537117
1602701745581832950,2342,1602701745581832950,,30.2879034463,-97.737681751,-1.45628011227
1602701745621995687,2343,1602701745621995687,,30.2879030019,-97.7376817825,-1.45611035824
1602701745662701317,2344,1602701745662701317,,30.2879025584,-97.7376818144,-1.45594012737
1602701745703270589,2345,1602701745703270589,,30.287902114,-97.7376818462,-1.45644986629
1602701745763341672,2346,1602701745763341672,,30.2879016693,-97.737681878,-1.45661962032
1602701745784715382,2347,1602701745784715382,,30.2879016693,-97.737681878,-1.45661962032
1602701745824825333,2348,1602701745824825333,,30.2879012237,-97.7376819109,-1.45729911327
1602701745884922552,2349,1602701745884922552,,30.287901064,-97.7376817228,-1.45998764038
1602701745925135608,2350,1602701745925135608,,30.2879006192,-97.7376817563,-1.45964765549
1602701745965647882,2351,1602701745965647882,,30.2879001753,-97.7376817899,-1.45998764038
1602701746006008838,2352,1602701746006008838,,30.2878997315,-97.7376818241,-1.46032714844
1602701746066288776,2353,1602701746066288776,,30.287899287,-97.7376818576,-1.46015739441
1602701746087990000,2354,1602701746087990000,,30.287899287,-97.7376818576,-1.46015739441
1602701746127962315,2355,1602701746127962315,,30.2878988426,-97.7376818918,-1.46032714844
1602701746167951032,2356,1602701746167951032,,30.287898676,-97.7376821021,-1.46289455891
1602701746208260511,2357,1602701746208260511,,30.2878982317,-97.7376821377,-1.46306431293
1602701746268729621,2358,1602701746268729621,,30.2878977865,-97.7376821729,-1.46323406696
1602701746309090095,2359,1602701746309090095,,30.2878973417,-97.7376822083,-1.46272480488
1602701746349069072,2360,1602701746349069072,,30.2878968985,-97.7376822436,-1.46306431293
1602701746369393874,2361,1602701746369393874,,30.2878968985,-97.7376822436,-1.46306431293
1602701746390601481,2362,1602701746390601481,,30.2878968985,-97.7376822436,-1.46306431293
1602701746430367984,2363,1602701746430367984,,30.2878964545,-97.7376822792,-1.46323406696
1602701746470445745,2364,1602701746470445745,,30.2878964399,-97.7376824638,-1.46671187878
1602701746510987144,2365,1602701746510987144,,30.2878959955,-97.737682501,-1.46671187878
1602701746571179229,2366,1602701746571179229,,30.2878955521,-97.7376825378,-1.46654212475
1602701746611432614,2367,1602701746611432614,,30.2878951071,-97.7376825752,-1.46671187878
1602701746651881586,2368,1602701746651881586,,30.2878946622,-97.7376826128,-1.4672216177
1602701746693423975,2369,1602701746693423975,,30.2878946622,-97.7376826128,-1.4672216177
1602701746713353349,2370,1602701746713353349,,30.2878942175,-97.7376826501,-1.4672216177
1602701746733263624,2371,1602701746733263624,,30.2878942175,-97.7376826501,-1.4672216177
1602701746773450217,2372,1602701746773450217,,30.2878937789,-97.7376829167,-1.47044205666
1602701746813755509,2373,1602701746813755509,,30.287893334,-97.7376829561,-1.47095179558
1602701746854044249,2374,1602701746854044249,,30.2878928895,-97.7376829955,-1.47061228752
1602701746894602874,2375,1602701746894602874,,30.287892442,-97.7376830312,-1.46636557579
1602701746954931947,2376,1602701746954931947,,30.287892442,-97.7376830312,-1.46636557579
1602701746995013328,2377,1602701746995013328,,30.2878919981,-97.7376830651,-1.46194863319
1602701747037127545,2378,1602701747037127545,,30.287891107,-97.7376831217,-1.45345520973
1602701747057378512,2379,1602701747057378512,,30.287891107,-97.7376831217,-1.45345520973
1602701747117607855,2380,1602701747117607855,,30.287890797,-97.7376828996,-1.45276153088
1602701747158010241,2381,1602701747158010241,,30.2878903543,-97.7376829294,-1.4532712698
1602701747198272618,2382,1602701747198272618,,30.2878899081,-97.7376829599,-1.45310151577
1602701747258446130,2383,1602701747258446130,,30.2878894622,-97.7376829906,-1.45344102383
1602701747298713383,2384,1602701747298713383,,30.2878890177,-97.7376830208,-1.45361125469
1602701747320595552,2385,1602701747320595552,,30.2878890177,-97.7376830208,-1.45361125469
1602701747360141616,2386,1602701747360141616,,30.2878894214,-97.7376831858,-1.45791649818
1602701747420480473,2387,1602701747420480473,,30.2878889774,-97.7376832188,-1.45791649818
1602701747461202853,2388,1602701747461202853,,30.2878885321,-97.7376832492,-1.45468878746
1602701747501647175,2389,1602701747501647175,,30.2878880856,-97.7376832766,-1.45010256767
1602701747541756200,2390,1602701747541756200,,30.2878880856,-97.7376832766,-1.45010256767
1602701747601927232,2391,1602701747601927232,,30.2878876414,-97.7376833025,-1.44636511803
1602701747642581418,2392,1602701747642581418,,30.287886752,-97.7376833531,-1.44500613213
1602701747662843763,2393,1602701747662843763,,30.287886752,-97.7376833531,-1.44500613213
1602701747704659119,2394,1602701747704659119,,30.2878863047,-97.7376833793,-1.44517636299
1602701747744497516,2395,1602701747744497516,,30.2878858616,-97.7376834059,-1.44602560997
1602701747805261312,2396,1602701747805261312,,30.2878849306,-97.7376832646,-1.44921183586
1602701747845462598,2397,1602701747845462598,,30.2878849306,-97.7376832646,-1.44921183586
1602701747885407496,2398,1602701747885407496,,30.2878844855,-97.737683293,-1.44955134392
1602701747925692788,2399,1602701747925692788,,30.2878840405,-97.7376833219,-1.44989132881
1602701747966012198,2400,1602701747966012198,,30.287883596,-97.7376833507,-1.45006108284
1602701747986156932,2401,1602701747986156932,,30.287883596,-97.7376833507,-1.45006108284
1602701748007787964,2402,1602701748007787964,,30.2878831504,-97.7376833789,-1.44989132881
1602701748047907622,2403,1602701748047907622,,30.2878827025,-97.7376834043,-1.44547438622
1602701748087957704,2404,1602701748087957704,,30.287882752,-97.737683638,-1.44455909729
1602701748148472145,2405,1602701748148472145,,30.287882752,-97.737683638,-1.44455909729
1602701748188900525,2406,1602701748188900525,,30.2878823051,-97.7376836628,-1.44320011139
1602701748229367670,2407,1602701748229367670,,30.2878818627,-97.7376836852,-1.43997240067
1602701748269486940,2408,1602701748269486940,,30.2878814148,-97.7376837054,-1.43555593491
1602701748310701523,2409,1602701748310701523,,30.2878809686,-97.7376837235,-1.4318189621
1602701748330762412,2410,1602701748330762412,,30.2878809686,-97.7376837235,-1.4318189621
1602701748350736799,2411,1602701748350736799,,30.2878805239,-97.7376837398,-1.42808151245
1602701748390850252,2412,1602701748390850252,,30.2878803664,-97.7376837235,-1.42985284328
1602701748431356054,2413,1602701748431356054,,30.2878803664,-97.7376837235,-1.42985284328
1602701748471652282,2414,1602701748471652282,,30.2878799208,-97.7376837427,-1.43087184429
1602701748512411861,2415,1602701748512411861,,30.2878794749,-97.7376837614,-1.43070209026
1602701748572376190,2416,1602701748572376190,,30.2878790321,-97.73768378,-1.43104159832
1602701748613804758,2417,1602701748613804758,,30.2878785862,-97.7376837988,-1.43121182919
1602701748653869372,2418,1602701748653869372,,30.2878781393,-97.7376838179,-1.43121182919
1602701748673949093,2419,1602701748673949093,,30.2878781393,-97.7376838179,-1.43121182919
1602701748694114139,2420,1602701748694114139,,30.2878789805,-97.7376839344,-1.43956589699
1602701748734310924,2421,1602701748734310924,,30.2878785361,-97.7376839542,-1.43531870842
1602701748774436498,2422,1602701748774436498,,30.287878089,-97.7376839721,-1.43090224266
1602701748815099626,2423,1602701748815099626,,30.2878776444,-97.7376839874,-1.42682528496
1602701748875082033,2424,1602701748875082033,,30.2878771998,-97.7376840014,-1.42274832726
1602701748915250390,2425,1602701748915250390,,30.2878767526,-97.7376840133,-1.4193508625
1602701748956213256,2426,1602701748956213256,,30.287876306,-97.7376840228,-1.41561388969
1602701748976411594,2427,1602701748976411594,,30.2878765284,-97.7376840847,-1.41904914379
1602701749036742866,2428,1602701749036742866,,30.2878765284,-97.7376840847,-1.41904914379
1602701749077237819,2429,1602701749077237819,,30.2878760817,-97.7376840975,-1.41955840588
1602701749117484209,2430,1602701749117484209,,30.2878756338,-97.7376841078,-1.4159911871
1602701749157557930,2431,1602701749157557930,,30.2878751899,-97.7376841159,-1.41191422939
1602701749218018078,2432,1602701749218018078,,30.2878747448,-97.7376841239,-1.41072547436
1602701749258453846,2433,1602701749258453846,,30.2878742982,-97.7376841325,-1.41106498241
1602701749278541379,2434,1602701749278541379,,30.2878738517,-97.7376841411,-1.41140449047
1602701749339826995,2435,1602701749339826995,,30.2878738517,-97.7376841411,-1.41140449047
1602701749380022654,2436,1602701749380022654,,30.2878734061,-97.7376841501,-1.41174447536
1602701749420102536,2437,1602701749420102536,,30.2878730048,-97.7376841527,-1.40994632244
1602701749460192350,2438,1602701749460192350,,30.2878725589,-97.7376841608,-1.41028630733
1602701749520732241,2439,1602701749520732241,,30.2878721134,-97.7376841692,-1.41028630733
1602701749541034004,2440,1602701749541034004,,30.287871667,-97.737684177,-1.40994632244
1602701749581060207,2441,1602701749581060207,,30.2878712199,-97.7376841847,-1.41011607647
1602701749642856779,2442,1602701749642856779,,30.2878712199,-97.7376841847,-1.41011607647
1602701749682583492,2443,1602701749682583492,,30.2878707739,-97.7376841935,-1.41062581539
1602701749722813418,2444,1602701749722813418,,30.2878706659,-97.7376838494,-1.41015481949
1602701749763107020,2445,1602701749763107020,,30.2878702198,-97.7376838572,-1.41032457352
1602701749803651946,2446,1602701749803651946,,30.2878697763,-97.7376838656,-1.41083431244
1602701749844155858,2447,1602701749844155858,,30.2878693289,-97.7376838743,-1.41083431244
1602701749864202254,2448,1602701749864202254,,30.2878693289,-97.7376838743,-1.41083431244
1602701749884342519,2449,1602701749884342519,,30.2878688832,-97.7376838825,-1.41083431244
1602701749926869631,2450,1602701749926869631,,30.2878688832,-97.7376838825,-1.41083431244
1602701749966275070,2451,1602701749966275070,,30.2878684376,-97.7376838915,-1.41117429733
1602701750026041315,2452,1602701750026041315,,30.2878681062,-97.7376839793,-1.41213572025
1602701750066304554,2453,1602701750066304554,,30.2878676616,-97.737683988,-1.41162598133
1602701750106673416,2454,1602701750106673416,,30.2878672159,-97.7376839964,-1.41128647327
1602701750167065161,2455,1602701750167065161,,30.2878667716,-97.7376840053,-1.4114562273
1602701750187116107,2456,1602701750187116107,,30.2878663256,-97.7376840139,-1.41128647327
1602701750229391520,2457,1602701750229391520,,30.2878663256,-97.7376840139,-1.41128647327
1602701750268621798,2458,1602701750268621798,,30.2878658817,-97.7376840228,-1.41162598133
1602701750308494119,2459,1602701750308494119,,30.2878654386,-97.7376840319,-1.41162598133
1602701750368729224,2460,1602701750368729224,,30.2878654045,-97.7376841008,-1.41376101971
1602701750409484368,2461,1602701750409484368,,30.287864961,-97.7376841102,-1.41359078884
1602701750449673582,2462,1602701750449673582,,30.2878645177,-97.7376841202,-1.41342103481
1602701750469800033,2463,1602701750469800033,,30.2878645177,-97.7376841202,-1.41342103481
1602701750489734353,2464,1602701750489734353,,30.2878640724,-97.7376841305,-1.41393077374
1602701750531215881,2465,1602701750531215881,,30.2878640724,-97.7376841305,-1.41393077374
1602701750571065996,2466,1602701750571065996,,30.287863627,-97.7376841378,-1.4110430479
1602701750611531268,2467,1602701750611531268,,30.2878631967,-97.7376843275,-1.40552604198
1602701750651857686,2468,1602701750651857686,,30.2878627501,-97.73768433,-1.40144908428
1602701750712183964,2469,1602701750712183964,,30.2878627501,-97.73768433,-1.40144908428
1602701750752503655,2470,1602701750752503655,,30.2878618605,-97.7376843309,-1.39771211147
1602701750792583250,2471,1602701750792583250,,30.2878614171,-97.7376843335,-1.3982218504
1602701750812738681,2472,1602701750812738681,,30.2878614171,-97.7376843335,-1.3982218504
1602701750833518734,2473,1602701750833518734,,30.2878614171,-97.7376843335,-1.3982218504
1602701750873561369,2474,1602701750873561369,,30.2878609437,-97.7376843393,-1.40097045898
1602701750913760671,2475,1602701750913760671,,30.2878604998,-97.7376843431,-1.40131044388
1602701750953981055,2476,1602701750953981055,,30.2878600546,-97.7376843467,-1.4018201828
1602701751014240286,2477,1602701751014240286,,30.2878596079,-97.7376843506,-1.4018201828
1602701751054325587,2478,1602701751054325587,,30.2878591623,-97.7376843542,-1.40215969086
1602701751074468683,2479,1602701751074468683,,30.2878591623,-97.7376843542,-1.40215969086
1602701751094686310,2480,1602701751094686310,,30.2878591623,-97.7376843542,-1.40215969086
1602701751135296581,2481,1602701751135296581,,30.287858718,-97.7376843589,-1.40266942978
1602701751175411594,2482,1602701751175411594,,30.2878582722,-97.7376843631,-1.40266942978
1602701751215624426,2483,1602701751215624426,,30.287857827,-97.7376843672,-1.40283918381
1602701751257195838,2484,1602701751257195838,,30.2878573798,-97.7376843682,-1.39825296402
1602701751297139909,2485,1602701751297139909,,30.287857553,-97.7376843542,-1.3970772028
1602701751357587540,2486,1602701751357587540,,30.2878566648,-97.7376843472,-1.39147102833
1602701751397905008,2487,1602701751397905008,,30.2878562186,-97.7376843459,-1.39198076725
1602701751418277200,2488,1602701751418277200,,30.2878562186,-97.7376843459,-1.39198076725
1602701751478691684,2489,1602701751478691684,,30.2878557728,-97.7376843449,-1.39198076725
1602701751518901308,2490,1602701751518901308,,30.2878553281,-97.7376843439,-1.3926602602
1602701751560504535,2491,1602701751560504535,,30.2878548823,-97.7376843427,-1.39232075214
1602701751600467207,2492,1602701751600467207,,30.2878550174,-97.7376844143,-1.39087772369
1602701751641055797,2493,1602701751641055797,,30.2878541258,-97.7376844112,-1.39121723175
1602701751701329062,2494,1602701751701329062,,30.2878536815,-97.7376844098,-1.39172697067
1602701751721298971,2495,1602701751721298971,,30.2878536815,-97.7376844098,-1.39172697067
1602701751761963293,2496,1602701751761963293,,30.2878532341,-97.7376844084,-1.39138698578
1602701751822252189,2497,1602701751822252189,,30.2878527892,-97.7376844066,-1.39172697067
1602701751863562788,2498,1602701751863562788,,30.2878523435,-97.7376844054,-1.39172697067
1602701751903690848,2499,1602701751903690848,,30.2878523435,-97.7376844054,-1.39172697067
1602701751943952055,2500,1602701751943952055,,30.2878519898,-97.7376843735,-1.39140331745
1602701751984499485,2501,1602701751984499485,,30.2878510994,-97.7376843713,-1.3920828104
1602701752044785024,2502,1602701752044785024,,30.2878506527,-97.7376843704,-1.3920828104
1602701752064881045,2503,1602701752064881045,,30.2878506527,-97.7376843704,-1.3920828104
1602701752105005340,2504,1602701752105005340,,30.287850207,-97.737684369,-1.3920828104
1602701752146087737,2505,1602701752146087737,,30.2878497529,-97.7376843677,-1.39174282551
1602701752206449566,2506,1602701752206449566,,30.2878500337,-97.7376841588,-1.39046442509
1602701752247251793,2507,1602701752247251793,,30.2878495874,-97.7376841567,-1.39097416401
1602701752287414313,2508,1602701752287414313,,30.2878491429,-97.7376841549,-1.39080440998
1602701752327234393,2509,1602701752327234393,,30.2878486985,-97.7376841529,-1.39029467106
1602701752367865765,2510,1602701752367865765,,30.2878482527,-97.7376841503,-1.39029467106
1602701752388020803,2511,1602701752388020803,,30.2878482527,-97.7376841503,-1.39029467106
1602701752408098619,2512,1602701752408098619,,30.2878478046,-97.7376841485,-1.39029467106
1602701752449991221,2513,1602701752449991221,,30.2878473588,-97.7376841459,-1.39029467106
1602701752490115178,2514,1602701752490115178,,30.2878473588,-97.7376841459,-1.39029467106
1602701752530416527,2515,1602701752530416527,,30.2878469123,-97.7376841444,-1.39063465595
1602701752590478006,2516,1602701752590478006,,30.2878463614,-97.7376842556,-1.38966310024
1602701752630638680,2517,1602701752630638680,,30.2878459155,-97.7376842536,-1.38983285427
1602701752670919571,2518,1602701752670919571,,30.2878454692,-97.7376842512,-1.39034259319
1602701752711324340,2519,1602701752711324340,,30.2878450235,-97.7376842488,-1.3900026083
1602701752731367391,2520,1602701752731367391,,30.2878450235,-97.7376842488,-1.3900026083
1602701752753075241,2521,1602701752753075241,,30.2878445776,-97.7376842468,-1.39034259319
1602701752793046475,2522,1602701752793046475,,30.2878445776,-97.7376842468,-1.39034259319
1602701752833018003,2523,1602701752833018003,,30.2878441759,-97.7376843346,-1.38918101788
1602701752873654220,2524,1602701752873654220,,30.2878437305,-97.7376843316,-1.38901126385
1602701752913795413,2525,1602701752913795413,,30.2878432858,-97.7376843293,-1.3893507719
1602701752974038356,2526,1602701752974038356,,30.2878428397,-97.737684327,-1.38986051083
1602701753014516635,2527,1602701753014516635,,30.2878423935,-97.7376843241,-1.3893507719
1602701753034512960,2528,1602701753034512960,,30.2878423935,-97.7376843241,-1.3893507719
1602701753056372035,2529,1602701753056372035,,30.2878419486,-97.7376843219,-1.3896907568
1602701753096104735,2530,1602701753096104735,,30.2878419486,-97.7376843219,-1.3896907568
1602701753136488168,2531,1602701753136488168,,30.2878415346,-97.7376844055,-1.38924145699
1602701753176575158,2532,1602701753176575158,,30.2878410896,-97.7376844031,-1.38958096504
1602701753216896352,2533,1602701753216896352,,30.2878406452,-97.7376843999,-1.38873171806
1602701753277469955,2534,1602701753277469955,,30.2878401979,-97.7376843967,-1.38873171806
1602701753317713416,2535,1602701753317713416,,30.2878397502,-97.7376843938,-1.38907122612
1602701753339093214,2536,1602701753339093214,,30.2878393033,-97.7376843911,-1.38890147209
1602701753378889487,2537,1602701753378889487,,30.2878393033,-97.7376843911,-1.38890147209
1602701753439263229,2538,1602701753439263229,,30.287838903,-97.7376842286,-1.38830089569
1602701753479539172,2539,1602701753479539172,,30.2878384556,-97.7376842252,-1.38847112656
1602701753519851298,2540,1602701753519851298,,30.2878380093,-97.7376842228,-1.38881063461
1602701753560510731,2541,1602701753560510731,,30.2878375644,-97.7376842197,-1.38881063461
1602701753620573713,2542,1602701753620573713,,30.2878371186,-97.7376842134,-1.38439416885
1602701753640676960,2543,1602701753640676960,,30.2878366722,-97.7376842026,-1.37725925446
1602701753682201562,2544,1602701753682201562,,30.2878366722,-97.7376842026,-1.37725925446
1602701753742479991,2545,1602701753742479991,,30.2878365873,-97.7376843016,-1.37158477306
1602701753782791516,2546,1602701753782791516,,30.2878361412,-97.737684284,-1.36377036572
1602701753822999462,2547,1602701753822999462,,30.2878356968,-97.7376842616,-1.35561692715
1602701753863620497,2548,1602701753863620497,,30.2878352507,-97.7376842354,-1.3478025198
1602701753903628659,2549,1602701753903628659,,30.2878348059,-97.7376842022,-1.33625113964
1602701753943893124,2550,1602701753943893124,,30.287834359,-97.7376841627,-1.32368075848
1602701753964164425,2551,1602701753964164425,,30.287834359,-97.7376841627,-1.32368075848
1602701753984195324,2552,1602701753984195324,,30.287834359,-97.7376841627,-1.32368075848
1602701754024228758,2553,1602701754024228758,,30.2878339142,-97.7376841168,-1.31178987026
1602701754066068291,2554,1602701754066068291,,30.2878334704,-97.7376840645,-1.29938924313
1602701754125833283,2555,1602701754125833283,,30.2878332518,-97.7376838348,-1.28953838348
1602701754166298110,2556,1602701754166298110,,30.2878328099,-97.737683769,-1.27425003052
1602701754206687921,2557,1602701754206687921,,30.2878323684,-97.7376836946,-1.25777244568
1602701754246790659,2558,1602701754246790659,,30.2878319269,-97.7376836106,-1.24044561386
1602701754267128984,2559,1602701754267128984,,30.2878319269,-97.7376836106,-1.24044561386
1602701754287294030,2560,1602701754287294030,,30.2878319269,-97.7376836106,-1.24044561386
1602701754327559920,2561,1602701754327559920,,30.2878314879,-97.7376835191,-1.22430801392
1602701754370248819,2562,1602701754370248819,,30.2878310489,-97.7376834182,-1.20766067505
1602701754429561581,2563,1602701754429561581,,30.2878309102,-97.7376833178,-1.19293618202
1602701754469995102,2564,1602701754469995102,,30.2878304754,-97.7376832023,-1.17679858208
1602701754510465145,2565,1602701754510465145,,30.2878300436,-97.7376830782,-1.15981125832
1602701754550473097,2566,1602701754550473097,,30.2878296126,-97.7376829454,-1.14299416542
1602701754570867948,2567,1602701754570867948,,30.2878296126,-97.7376829454,-1.14299416542
1602701754591040871,2568,1602701754591040871,,30.2878296126,-97.7376829454,-1.14299416542
1602701754631210147,2569,1602701754631210147,,30.287829182,-97.7376828039,-1.12634634972
1602701754673423473,2570,1602701754673423473,,30.2878287569,-97.7376826556,-1.11003899574
1602701754713417065,2571,1602701754713417065,,30.2878283314,-97.7376824978,-1.09288191795
1602701754753677100,2572,1602701754753677100,,30.2878279419,-97.7376823667,-1.07577586174
1602701754813842369,2573,1602701754813842369,,30.2878279419,-97.7376823667,-1.07577586174
1602701754854417344,2574,1602701754854417344,,30.2878271095,-97.7376819924,-1.04163146019
1602701754894746599,2575,1602701754894746599,,30.2878271095,-97.7376819924,-1.04163146019
1602701754914924931,2576,1602701754914924931,,30.2878266945,-97.7376818018,-1.02532410622
1602701754935044400,2577,1602701754935044400,,30.2878266945,-97.7376818018,-1.02532410622
1602701754976475150,2578,1602701754976475150,,30.2878262826,-97.7376816034,-1.00850653648
1602701755016444335,2579,1602701755016444335,,30.2878263617,-97.737681485,-0.988241076469
1602701755056821765,2580,1602701755056821765,,30.287825958,-97.7376812694,-0.971253752708
1602701755096999381,2581,1602701755096999381,,30.287825958,-97.7376812694,-0.971253752708
1602701755137412364,2582,1602701755137412364,,30.287825555,-97.737681045,-0.954436659813
1602701755198016430,2583,1602701755198016430,,30.2878251575,-97.7376808138,-0.937789320946
1602701755238353041,2584,1602701755238353041,,30.2878243695,-97.7376803057,-0.903475165367
1602701755260245825,2585,1602701755260245825,,30.2878243695,-97.7376803057,-0.903475165367
1602701755300110509,2586,1602701755300110509,,30.2878239819,-97.7376800509,-0.886487841606
1602701755360503052,2587,1602701755360503052,,30.2878234402,-97.7376803924,-0.870665252209
1602701755400296867,2588,1602701755400296867,,30.2878234402,-97.7376803924,-0.870665252209
1602701755440861953,2589,1602701755440861953,,30.2878230605,-97.7376801231,-0.853848159313
1602701755481237791,2590,1602701755481237791,,30.2878226828,-97.7376798454,-0.837200820446
1602701755541538397,2591,1602701755541538397,,30.2878219526,-97.7376792558,-0.802716910839
1602701755562935333,2592,1602701755562935333,,30.2878219526,-97.7376792558,-0.802716910839
1602701755603067117,2593,1602701755603067117,,30.2878215885,-97.7376789558,-0.785390079021
1602701755643009005,2594,1602701755643009005,,30.2878213884,-97.7376786773,-0.770671486855
1602701755703559060,2595,1602701755703559060,,30.2878213884,-97.7376786773,-0.770671486855
1602701755744030870,2596,1602701755744030870,,30.2878210322,-97.7376783636,-0.7533441782
1602701755784580695,2597,1602701755784580695,,30.2878206821,-97.7376780449,-0.736527085304
1602701755824673547,2598,1602701755824673547,,30.2878203366,-97.7376777188,-0.719539761543
1602701755865324720,2599,1602701755865324720,,30.2878199957,-97.737677386,-0.702892422676
1602701755885174401,2600,1602701755885174401,,30.2878199957,-97.737677386,-0.702892422676
1602701755905258364,2601,1602701755905258364,,30.2878196609,-97.7376770479,-0.68539583683
1602701755945473842,2602,1602701755945473842,,30.2878193292,-97.737676701,-0.668578267097
1602701755986948026,2603,1602701755986948026,,30.2878193292,-97.737676701,-0.668578267097
1602701756046896940,2604,1602701756046896940,,30.2878190023,-97.7376763472,-0.65125143528
1602701756087285167,2605,1602701756087285167,,30.2878188112,-97.7376763385,-0.637289345264
1602701756127548248,2606,1602701756127548248,,30.2878184963,-97.7376759758,-0.619792282581
1602701756168041842,2607,1602701756168041842,,30.2878181853,-97.7376756047,-0.602975189686
1602701756188221483,2608,1602701756188221483,,30.2878181853,-97.7376756047,-0.602975189686
1602701756208185207,2609,1602701756208185207,,30.2878178796,-97.7376752273,-0.585818111897
1602701756248439983,2610,1602701756248439983,,30.2878175815,-97.7376748468,-0.569001019001
1602701756290101995,2611,1602701756290101995,,30.2878175815,-97.7376748468,-0.569001019001
1602701756330121025,2612,1602701756330121025,,30.2878175078,-97.7376747371,-0.551398456097
1602701756390171858,2613,1602701756390171858,,30.2878172189,-97.7376743418,-0.534580886364
1602701756430721673,2614,1602701756430721673,,30.2878169365,-97.7376739433,-0.518782794476
1602701756471063262,2615,1602701756471063262,,30.2878166574,-97.7376735413,-0.506722152233
1602701756511628503,2616,1602701756511628503,,30.2878163833,-97.7376731355,-0.494151771069
1602701756531847021,2617,1602701756531847021,,30.2878163833,-97.7376731355,-0.494151771069
1602701756551748032,2618,1602701756551748032,,30.2878161129,-97.7376727253,-0.481580913067
1602701756593681185,2619,1602701756593681185,,30.2878161129,-97.7376727253,-0.481580913067
1602701756633572395,2620,1602701756633572395,,30.2878158459,-97.7376723102,-0.469859778881
1602701756673730523,2621,1602701756673730523,,30.2878158139,-97.7376714816,-0.458815813065
1602701756714166022,2622,1602701756714166022,,30.2878155562,-97.7376710604,-0.446415185928
1602701756774451972,2623,1602701756774451972,,30.2878153048,-97.7376706377,-0.433335065842
1602701756814703578,2624,1602701756814703578,,30.2878150561,-97.7376702082,-0.420594453812
1602701756854917383,2625,1602701756854917383,,30.2878148121,-97.7376697753,-0.408363580704
1602701756875002167,2626,1602701756875002167,,30.2878148121,-97.7376697753,-0.408363580704
1602701756896185687,2627,1602701756896185687,,30.2878148121,-97.7376697753,-0.408363580704
1602701756936347445,2628,1602701756936347445,,30.287814574,-97.7376693411,-0.395623445511
1602701756976443587,2629,1602701756976443587,,30.2878143406,-97.7376689027,-0.382882833481
1602701757016617427,2630,1602701757016617427,,30.2878141115,-97.7376684603,-0.370312452316
1602701757077021114,2631,1602701757077021114,,30.2878137867,-97.7376684808,-0.356352984905
1602701757117015409,2632,1602701757117015409,,30.2878135679,-97.7376680322,-0.343782603741
1602701757137334323,2633,1602701757137334323,,30.2878133539,-97.7376675802,-0.331381976604
1602701757198569429,2634,1602701757198569429,,30.2878133539,-97.7376675802,-0.331381976604
1602701757238855888,2635,1602701757238855888,,30.2878131448,-97.7376671238,-0.318301856518
1602701757278949276,2636,1602701757278949276,,30.2878130956,-97.7376668837,-0.303635567427
1602701757319310723,2637,1602701757319310723,,30.2878128968,-97.7376664206,-0.291404694319
1602701757359786503,2638,1602701757359786503,,30.2878127038,-97.7376659563,-0.278834313154
1602701757400578905,2639,1602701757400578905,,30.287812516,-97.7376654896,-0.266094177961
1602701757460801233,2640,1602701757460801233,,30.2878123327,-97.7376650188,-0.253353565931
1602701757481588370,2641,1602701757481588370,,30.2878123327,-97.7376650188,-0.253353565931
1602701757521620242,2642,1602701757521620242,,30.2878123013,-97.7376645888,-0.238635092974
1602701757582118059,2643,1602701757582118059,,30.2878121282,-97.7376641155,-0.229122191668
1602701757622681143,2644,1602701757622681143,,30.2878119576,-97.7376636402,-0.221478015184
1602701757663135254,2645,1602701757663135254,,30.2878117903,-97.7376631619,-0.212984591722
1602701757703843514,2646,1602701757703843514,,30.2878116259,-97.7376626812,-0.204830676317
1602701757743848676,2647,1602701757743848676,,30.2878114653,-97.7376622007,-0.196676760912
1602701757786342969,2648,1602701757786342969,,30.2878114653,-97.7376622007,-0.196676760912
1602701757806442082,2649,1602701757806442082,,30.2878113079,-97.7376617165,-0.188522845507
1602701757826367244,2650,1602701757826367244,,30.2878113079,-97.7376617165,-0.188522845507
1602701757866347715,2651,1602701757866347715,,30.2878113086,-97.7376615273,-0.175682663918
1602701757906574748,2652,1602701757906574748,,30.2878111603,-97.7376610413,-0.167698502541
1602701757967182507,2653,1602701757967182507,,30.2878110149,-97.7376605524,-0.159374833107
1602701758007988454,2654,1602701758007988454,,30.2878110149,-97.7376605524,-0.159374833107
1602701758047924846,2655,1602701758047924846,,30.2878107425,-97.7376595703,-0.142897248268
1602701758089573728,2656,1602701758089573728,,30.2878107425,-97.7376595703,-0.142897248268
1602701758109681333,2657,1602701758109681333,,30.2878106083,-97.7376590798,-0.134743332863
1602701758129704762,2658,1602701758129704762,,30.2878106083,-97.7376590798,-0.134743332863
1602701758169635133,2659,1602701758169635133,,30.2878103701,-97.7376587845,-0.124526709318
1602701758210148431,2660,1602701758210148431,,30.2878102437,-97.7376582895,-0.115693300962
1602701758250243604,2661,1602701758250243604,,30.287810121,-97.737657796,-0.107709616423
1602701758311245042,2662,1602701758311245042,,30.2878100009,-97.7376572971,-0.0997254550457
1602701758351326810,2663,1602701758351326810,,30.2878100009,-97.7376572971,-0.0997254550457
1602701758391979350,2664,1602701758391979350,,30.287809885,-97.7376567988,-0.0912320315838
1602701758431966385,2665,1602701758431966385,,30.2878097725,-97.7376562995,-0.0830781161785
1602701758452202502,2666,1602701758452202502,,30.287809664,-97.7376558002,-0.0745846927166
1602701758472304845,2667,1602701758472304845,,30.287809664,-97.7376558002,-0.0745846927166
1602701758514215322,2668,1602701758514215322,,30.2878095567,-97.73765529,-0.0666005313396
1602701758553871574,2669,1602701758553871574,,30.2878092348,-97.7376550538,-0.0566406026483
1602701758594102193,2670,1602701758594102193,,30.2878092348,-97.7376550538,-0.0566406026483
1602701758654529909,2671,1602701758654529909,,30.2878091357,-97.7376545509,-0.0510349050164
1602701758694859737,2672,1602701758694859737,,30.2878090376,-97.7376540476,-0.0474676862359
1602701758735341340,2673,1602701758735341340,,30.2878089415,-97.7376535456,-0.0439004674554
1602701758755449518,2674,1602701758755449518,,30.2878088468,-97.7376530432,-0.0403332486749
1602701758775534326,2675,1602701758775534326,,30.2878088468,-97.7376530432,-0.0403332486749
1602701758817722971,2676,1602701758817722971,,30.287808754,-97.7376525396,-0.0362562909722
1602701758857487269,2677,1602701758857487269,,30.2878086625,-97.7376520349,-0.0323490872979
1602701758897706062,2678,1602701758897706062,,30.2878086903,-97.7376522345,-0.0320271700621
1602701758938019345,2679,1602701758938019345,,30.287808601,-97.7376517298,-0.0279502123594
1602701758978476991,2680,1602701758978476991,,30.2878085131,-97.7376512233,-0.0238732546568
1602701759038940551,2681,1602701759038940551,,30.2878084272,-97.7376507168,-0.0196265429258
1602701759079097436,2682,1602701759079097436,,30.2878083431,-97.7376502103,-0.015889570117
1602701759100632598,2683,1602701759100632598,,30.2878082608,-97.737649704,-0.0118126124144
1602701759140706400,2684,1602701759140706400,,30.2878081802,-97.7376491985,-0.00790540874004
1602701759200966136,2685,1602701759200966136,,30.2878081745,-97.7376492606,-0.00649226363748
1602701759241177145,2686,1602701759241177145,,30.2878080964,-97.7376487543,-0.00275529082865
1602701759281652180,2687,1602701759281652180,,30.2878080198,-97.7376482462,0.00132166687399
1602701759322163729,2688,1602701759322163729,,30.2878079446,-97.7376477364,0.00539862457663
1602701759362751654,2689,1602701759362751654,,30.2878078718,-97.7376472285,0.00964533630759
1602701759424795661,2690,1602701759424795661,,30.2878078007,-97.7376467193,0.0138925248757
1602701759444429819,2691,1602701759444429819,,30.2878077312,-97.737646209,0.0177992507815
1602701759484650838,2692,1602701759484650838,,30.2878077643,-97.7376463583,0.0186509080231
1602701759525142108,2693,1602701759525142108,,30.2878076974,-97.7376458479,0.0230678506196
1602701759585864974,2694,1602701759585864974,,30.287807632,-97.737645337,0.0273145623505
1602701759626427195,2695,1602701759626427195,,30.2878075685,-97.7376448249,0.0313915200531
1602701759666617447,2696,1602701759666617447,,30.2878075072,-97.7376443167,0.0358079858124
1602701759707689529,2697,1602701759707689529,,30.2878074476,-97.7376438053,0.0398849435151
1602701759748011702,2698,1602701759748011702,,30.2878073899,-97.7376432952,0.0437921471894
1602701759767919360,2699,1602701759767919360,,30.2878072096,-97.7376434181,0.0452968999743
1602701759788074733,2700,1602701759788074733,,30.2878072096,-97.7376434181,0.0452968999743
1602701759828282160,2701,1602701759828282160,,30.2878071543,-97.7376429074,0.0495436117053
1602701759868538254,2702,1602701759868538254,,30.2878071004,-97.7376423956,0.0531108304858
1602701759908926940,2703,1602701759908926940,,30.2878070484,-97.7376418832,0.0573575422168
1602701759969258589,2704,1602701759969258589,,30.2878069982,-97.7376413703,0.0614344999194
1602701760011159362,2705,1602701760011159362,,30.2878069502,-97.7376408612,0.0651719495654
1602701760051179608,2706,1602701760051179608,,30.2878069035,-97.7376403485,0.069248907268
1602701760071254098,2707,1602701760071254098,,30.2878069035,-97.7376403485,0.069248907268
1602701760091316121,2708,1602701760091316121,,30.2878068758,-97.7376404408,0.0691059976816
1602701760131690281,2709,1602701760131690281,,30.2878068307,-97.737639927,0.0730127245188
1602701760171940852,2710,1602701760171940852,,30.2878067875,-97.7376394151,0.0770896822214
1602701760212667241,2711,1602701760212667241,,30.2878067454,-97.7376389021,0.0796378999949
1602701760273020358,2712,1602701760273020358,,30.2878067016,-97.737638388,0.0786184221506
1602701760314700432,2713,1602701760314700432,,30.2878066581,-97.7376378746,0.0786184221506
1602701760354686614,2714,1602701760354686614,,30.2878066145,-97.7376373638,0.0779389292002
1602701760374633549,2715,1602701760374633549,,30.2878066145,-97.7376373638,0.0779389292002
1602701760394710205,2716,1602701760394710205,,30.2878062911,-97.7376376701,0.074260212481
1602701760435078372,2717,1602701760435078372,,30.2878062457,-97.7376371596,0.0740904584527
1602701760475273985,2718,1602701760475273985,,30.2878062008,-97.7376366502,0.074260212481
1602701760515761864,2719,1602701760515761864,,30.2878061579,-97.7376361346,0.0783371701837
1602701760556130947,2720,1602701760556130947,,30.2878061172,-97.7376356204,0.0827541127801
1602701760596215520,2721,1602701760596215520,,30.2878061172,-97.7376356204,0.0827541127801
1602701760658603750,2722,1602701760658603750,,30.2878060368,-97.737634591,0.0844526067376
1602701760698547466,2723,1602701760698547466,,30.2878060255,-97.7376341294,0.0846151709557
1602701760718911189,2724,1602701760718911189,,30.2878060255,-97.7376341294,0.0846151709557
1602701760759033499,2725,1602701760759033499,,30.2878059849,-97.7376336141,0.0852946639061
1602701760819934330,2726,1602701760819934330,,30.2878059446,-97.7376331013,0.0852946639061
1602701760860140472,2727,1602701760860140472,,30.2878059045,-97.7376325878,0.0854644179344
1602701760901307259,2728,1602701760901307259,,30.287805864,-97.7376320724,0.0858044028282
1602701760961647877,2729,1602701760961647877,,30.2878058239,-97.7376315596,0.0858044028282
1602701760981390560,2730,1602701760981390560,,30.2878059922,-97.7376319268,0.0846205130219
1602701761021570396,2731,1602701761021570396,,30.2878059514,-97.7376314127,0.0849600210786
1602701761082215850,2732,1602701761082215850,,30.2878059108,-97.7376308999,0.0847902670503
1602701761122834881,2733,1602701761122834881,,30.2878058706,-97.7376303876,0.0853000059724
1602701761163153063,2734,1602701761163153063,,30.28780583,-97.7376298741,0.0851302519441
1602701761203450381,2735,1602701761203450381,,30.2878057896,-97.73762936,0.0854697600007
1602701761245879341,2736,1602701761245879341,,30.2878057491,-97.7376288451,0.0854697600007
1602701761265775122,2737,1602701761265775122,,30.2878057491,-97.7376288451,0.0854697600007
1602701761285660221,2738,1602701761285660221,,30.2878057491,-97.7376288451,0.0854697600007
1602701761325927493,2739,1602701761325927493,,30.2878057091,-97.7376283334,0.085639514029
1602701761366230541,2740,1602701761366230541,,30.2878056689,-97.7376278192,0.0859794989228
1602701761426594724,2741,1602701761426594724,,30.2878059716,-97.7376275155,0.0861849114299
1602701761466684860,2742,1602701761466684860,,30.2878059316,-97.7376270025,0.0861849114299
1602701761507145077,2743,1602701761507145077,,30.2878058914,-97.7376264863,0.0861849114299
1602701761549199157,2744,1602701761549199157,,30.2878058515,-97.737625972,0.0865248963237
1602701761569339761,2745,1602701761569339761,,30.2878058515,-97.737625972,0.0865248963237
